city	lng	lat
阿坝藏族羌族自治州	102.2248	31.8994
阿克苏地区	80.2601	41.1684
阿拉尔	81.2807	40.548
阿拉善盟	105.729	38.8516
阿勒泰地区	88.1402	47.8457
阿里地区	81.1454	30.4005
安康	109.0293	32.6848
安庆	117.0635	30.5429
安顺	105.9462	26.2537
安阳	114.3931	36.0978
鞍山	122.9946	41.1077
巴彦淖尔	107.3877	40.7432
巴音郭楞蒙古自治州	86.1452	41.7641
巴中	106.7514	31.8634
白城	122.8388	45.6195
白沙黎族自治县	109.4517	19.2255
白山	126.4244	41.9408
白银	104.1378	36.5448
百色	106.6184	23.9021
蚌埠	117.3893	32.9156
包头	109.8402	40.6579
宝鸡	107.2373	34.362
保定	115.4646	38.874
保山	99.1618	25.112
保亭黎族苗族自治县	109.7026	18.6391
北海	109.1201	21.4812
北京	116.4072	39.9047
本溪	123.7669	41.2941
毕节	105.2939	27.2969
滨州	117.9727	37.3821
亳州	115.7793	33.8445
博尔塔拉蒙古自治州	82.0666	44.906
沧州	116.8387	38.3043
昌都	97.1791	31.1344
昌都地区	97.1791	31.1344
昌吉回族自治州	87.3082	44.0112
昌江黎族自治县	109.0556	19.2983
常德	111.6985	29.0316
常熟	121.4502	31.2137
常州	119.9736	31.8107
巢湖	119.972	31.8195
朝阳	120.1361	31.7843
潮州	116.6229	23.6567
郴州	113.0148	25.7706
成都	104.0648	30.5702
承德	117.9634	40.9515
澄迈县	110.0048	19.7385
池州	117.4914	30.6648
赤峰	118.889	42.2585
崇左	107.3508	22.4097
滁州	118.3168	32.3018
楚雄彝族自治州	101.5277	25.0449
达州	107.4679	31.2087
大理白族自治州	100.2676	25.6065
大连	121.6147	38.9137
大庆	125.1031	46.5876
大同	124.8105	46.0391
大兴安岭地区	124.5921	51.9241
丹东	124.3321	40.1227
儋州	109.5808	19.5211
德宏傣族景颇族自治州	98.5849	24.4323
德阳	104.3979	31.1268
德州	116.3593	37.4354
迪庆藏族自治州	99.703	27.8191
定安县	110.3593	19.6811
定西	104.6202	35.5799
东方	108.6537	19.0961
东莞	113.7518	23.0207
东营	118.6746	37.4336
都匀	107.5187	26.2598
鄂尔多斯	109.7809	39.6084
鄂州	114.895	30.3909
恩施土家族苗族自治州	109.4882	30.2721
防城港	108.3547	21.6871
佛山	113.1219	23.0218
福州	119.2965	26.0742
抚顺	123.9572	41.8797
抚州	116.3581	27.9478
阜新	121.6701	42.0216
阜阳	115.8149	32.8896
甘南藏族自治州	102.911	34.9833
甘孜藏族自治州	101.9625	30.0493
赣州	114.9347	25.8311
高雄市	120.3113	22.6168
高州	110.8534	21.9181
固原	106.2426	36.0158
广安	106.6332	30.456
广元	105.8436	32.4355
广州	113.2644	23.1291
贵港	109.5977	23.113
贵阳	106.6302	26.647
桂林	110.29	25.2736
果洛藏族自治州	100.2448	34.4714
哈尔滨	126.5358	45.8022
哈密地区	93.5163	42.8187
海北藏族自治州	100.901	36.9545
海东	102.0786	36.5117
海口	110.1999	20.0443
海南藏族自治州	100.6202	36.2864
海西蒙古族藏族自治州	97.3712	37.3771
邯郸	114.5392	36.6256
汉中	107.0391	33.0753
杭州	120.1552	30.2741
合肥	117.229	31.8205
和田地区	79.9225	37.1143
河池	108.0854	24.6929
河源	114.7006	23.7436
菏泽	115.4811	35.2337
贺州	111.5666	24.4035
鹤壁	114.2974	35.747
鹤岗	130.2978	47.3499
黑河	127.5283	50.2451
衡水	115.6702	37.7389
衡阳	112.572	26.8934
红河哈尼族彝族自治州	103.3748	23.3631
呼和浩特	111.7492	40.8426
呼伦贝尔	119.7657	49.2116
葫芦岛	120.8369	40.711
湖州	120.0868	30.8943
花莲县	121.6016	23.9872
怀化	110.0019	27.5695
淮安	119.0159	33.6102
淮北	116.7897	33.9539
淮南	117.0122	32.6366
黄冈	114.8724	30.4535
黄南藏族自治州	102.0151	35.5199
黄山	118.1683	30.1273
黄石	115.0389	30.1994
惠州	114.4168	23.1107
鸡西	130.9354	45.3153
基隆市	121.7476	25.1429
吉安	114.9937	27.1138
吉林市	126.5495	43.8378
吉首	109.6981	28.2625
济南	117.12	36.6512
济宁	116.5872	35.415
济源	112.6019	35.0672
佳木斯	130.3189	46.7998
嘉兴	120.7585	30.7539
嘉义县	120.2555	23.4518
嘉义市	120.2555	23.4518
嘉峪关	98.2901	39.772
江门	113.0816	22.5787
焦作	113.242	35.2156
揭阳	116.3727	23.5497
金昌	102.1876	38.5201
金华	119.6476	29.0781
锦州	121.127	41.0951
晋城	112.8511	35.4904
晋中	112.7319	37.6877
荆门	112.1995	31.0355
荆州	112.2407	30.3349
景德镇	117.1784	29.2687
九江	116.0015	29.7054
酒泉	98.4939	39.7326
句容	119.1686	31.9449
喀什地区	75.9897	39.4704
开封	114.3073	34.7973
凯里	107.9804	26.5675
克拉玛依	84.8893	45.58
克孜勒苏柯尔克孜自治州	76.1666	39.7153
昆明	102.8332	24.8797
昆山	120.9818	31.3848
拉萨	91.1145	29.6441
来宾	109.2224	23.7521
莱芜	117.6766	36.2136
莱阳	120.7118	36.9787
兰州	103.8342	36.0614
廊坊	116.6837	39.5378
乐东黎族自治县	109.17361	18.7499
乐山	103.7654	29.5523
丽江	100.2271	26.8564
丽水	119.9229	28.4672
连云港	119.223	34.5967
涟水	119.2609	33.7809
凉山彝族自治州	102.2675	27.8816
辽阳	123.2374	41.2681
辽源	125.1437	42.888
聊城	115.9855	36.457
林芝	94.3615	29.6489
林芝地区	94.3615	29.6489
临安	119.7248	30.2338
临沧	100.0992	23.9082
临汾	111.5196	36.0883
临高县	109.6907	19.9124
临夏回族自治州	103.2109	35.6012
临沂	118.3564	35.1046
陵水黎族自治县	109.8574	18.4304
柳州	109.4155	24.3254
六安	116.5232	31.735
六盘水	104.8302	26.5933
龙岩	117.0172	25.075
陇南	104.928	33.3887
娄底	111.9946	27.6973
泸州	105.4426	28.8717
洛阳	112.4536	34.6182
漯河	114.0168	33.5816
吕梁	111.1416	37.5194
马鞍山	118.5061	31.6707
茂名	110.9252	21.6633
眉山	103.8485	30.0757
梅州	116.1226	24.2884
绵阳	104.6796	31.4675
牡丹江	129.6324	44.5528
那曲地区	92.0514	31.4761
南昌	115.8579	28.682
南充	106.1107	30.8374
南京	118.7965	32.0584
南宁	108.3669	22.8167
南平	118.1778	26.6416
南通	120.8937	31.9796
南阳	112.5286	32.9906
内江	105.0584	29.5801
宁波	121.5503	29.8738
宁德	119.5482	26.6657
怒江傈僳族自治州	98.8568	25.8177
攀枝花	101.7187	26.5822
盘锦	122.0707	41.12
平顶山	113.1924	33.7662
平凉	106.6653	35.543
萍乡	113.8543	27.6229
莆田	119.0077	25.454
濮阳	115.0293	35.7618
普洱	115.0804	35.7694
七台河	131.0031	45.7705
齐齐哈尔	123.9179	47.3543
潜江	112.8993	30.4014
黔东南苗族侗族自治州	107.9841	26.5836
黔南布依族苗族自治州	107.5223	26.2543
黔西南布依族苗族自治州	104.9044	25.0899
钦州	108.6543	21.9797
秦皇岛	119.5997	39.9353
青岛	120.383	36.0663
青州	101.7801	36.6209
清远	113.0561	23.682
庆阳	107.6429	35.7098
琼海	110.4746	19.2584
琼中黎族苗族自治县	109.8384	19.0333
衢州	118.8742	28.9359
曲阜	116.9864	35.5808
曲靖	103.7963	25.49
泉州	118.6759	24.8739
日喀则	88.9496	29.2622
日喀则地区	88.9496	29.2622
日照	119.5272	35.4165
任丘	116.0995	38.7116
三河	117.0782	39.9825
三门峡	111.7432	34.747
三明	117.6392	26.2639
三亚	109.5121	18.2525
厦门	118.0894	24.4796
山南地区	91.7731	29.2371
汕头	116.6822	23.3535
汕尾	115.3751	22.7857
商洛	109.9404	33.8704
商丘	115.6563	34.4143
上海	121.4737	31.2304
上饶	117.9436	28.4546
韶关	113.5972	24.8104
邵阳	111.4677	27.2389
绍兴	120.5802	30.0303
深圳	114.0595	22.5428
神农架	110.6755	31.7446
神农架林区	110.6755	31.7446
沈阳	123.4324	41.8056
十堰	110.798	32.6291
石河子	86.0789	44.3066
石家庄	114.5143	38.0428
石嘴山	106.3842	38.9841
双鸭山	131.1591	46.6466
朔州	112.4318	39.3316
四平	124.3503	43.1666
松原	124.8252	45.1411
苏州	120.5832	31.2983
绥化	126.9693	46.6525
随州	113.3826	31.6901
遂宁	105.5927	30.5329
塔城地区	82.9804	46.7453
台北市	121.5249	25.0422
台南市	120.2269	22.9999
台中市	120.6736	24.1477
台州	121.4206	28.6561
太仓	121.1297	31.4591
太原	112.5507	37.8706
泰安	117.0884	36.2
泰州	119.9255	32.4554
唐山	118.1806	39.6304
桃园市	121.301	24.9936
天津	117.1994	39.085
天门	113.1662	30.6634
天水	105.7248	34.5809
铁岭	123.8424	42.2862
通化	125.9399	41.7283
通辽	122.2447	43.6525
铜川	108.9451	34.8967
铜陵	117.8123	30.9448
铜仁	109.1897	27.72
吐鲁番	89.1895	42.9513
吐鲁番地区	89.1895	42.9513
屯昌县	110.1035	19.3518
万宁	110.3897	18.7953
威海	122.1217	37.5134
潍坊	119.1617	36.7069
渭南	109.4774	34.4965
温州	120.6994	27.9948
文昌	110.7977	19.5432
文山壮族苗族自治州	104.215	23.3985
乌海	106.7955	39.6538
乌兰察布	113.1338	40.9938
乌鲁木齐	87.6169	43.8266
无锡	120.3124	31.491
芜湖	118.4331	31.3525
吴忠	106.1988	37.9976
梧州	111.2791	23.4771
五家渠	87.5402	44.168
五指山	87.4641	43.8087
武汉	114.3052	30.5927
武威	102.638	37.9281
西安	108.9398	34.3412
西宁	101.7779	36.6172
西双版纳傣族自治州	100.7974	22.0075
锡林郭勒盟	116.0477	43.9332
仙桃	113.4545	30.3625
咸宁	114.3224	29.8412
咸阳	108.7093	34.3293
湘潭	112.9441	27.8298
湘西土家族苗族自治州	109.7389	28.3117
襄阳	112.1225	32.0091
孝感	113.9165	30.9248
忻州	112.7342	38.4167
新北市	121.4628	25.017
新乡	113.9267	35.3032
新余	114.9171	27.8178
新竹市	120.9553	24.8064
信阳	114.0928	32.1471
邢台	114.5044	37.0706
兴安盟	122.0381	46.0821
兴义	104.8955	25.0919
宿迁	118.2755	33.9619
宿州	116.9639	33.6161
徐州	117.2857	34.2044
许昌	113.8524	34.0357
宣城	112.2578	31.7198
雅安	103.0398	30.0154
烟台	121.448	37.4635
延安	109.4898	36.5853
延边朝鲜族自治州	129.4795	42.8901
延吉	121.5337	31.2846
盐城	120.1616	33.3496
扬州	119.4127	32.3936
阳江	111.9825	21.8583
阳泉	113.5805	37.8567
伊春	128.8406	47.7274
伊犁哈萨克自治州	81.3241	43.9169
伊宁	81.2773	43.9094
宜宾	104.6417	28.7513
宜昌	111.2864	30.6918
宜春	114.4161	27.8144
益阳	112.3551	28.5539
银川	106.2325	38.4865
鹰潭	117.0692	28.2601
营口	122.2349	40.6668
永州	111.6122	26.4204
榆林	109.7346	38.2852
榆中	104.2377	35.994
玉林	110.181	22.6546
玉树藏族自治州	97.0065	33.0052
玉溪	102.5471	24.3518
岳阳	113.1292	29.3572
云浮	112.0445	22.9152
云林县	120.53	23.72
运城	111.007	35.0263
枣庄	117.322	34.8106
湛江	110.3589	21.2712
张家界	110.4784	29.1167
张家口	114.8876	40.8244
张掖	100.4498	38.9259
漳州	117.6472	24.5134
长春	125.3235	43.816
长沙	112.9388	28.2279
长治	113.1165	36.1958
昭通	103.7168	27.3381
肇庆	112.4653	23.0469
镇江	119.425	32.189
郑州	113.6249	34.7472
中山	113.3926	22.5159
中卫	105.1968	37.5003
重庆	106.5507	29.5647
舟山	122.2078	29.9853
周口	114.6969	33.6258
珠海	113.5767	22.2707
株洲	113.134	27.8276
驻马店	114.0229	33.0115
资阳	104.628	30.1287
淄博	118.0548	36.8131
自贡	104.7785	29.3391
遵义	106.9272	27.7254
台湾	120.8839	23.2660
香港	114.1629	22.2839
澳门	113.5440	22.2018
屏东县	120.4920	22.6678
